City_ID,City,Lat,Lng,Max Temp,Humidity,Cloudiness,Wind Speed,Country,Date
0,lebu,-37.6167,-73.65,18.62,68,1,5.13,CL,1705954643
1,fortuna,40.5982,-124.1573,17.18,87,75,0.89,US,1705954644
2,dili,-8.5586,125.5736,27.54,79,100,2.19,TL,1705954644
3,myeik,12.4333,98.6,21.06,68,29,2.09,MM,1705954645
4,cidreira,-30.1811,-50.2056,22.68,66,98,6.76,BR,1705954645
5,ushuaia,-54.8,-68.3,17.79,54,0,12.35,AR,1705954645
6,longyearbyen,78.2186,15.6401,-6.09,73,75,16.98,SJ,1705954645
7,anadyr,64.75,177.4833,-13.72,92,20,2.0,RU,1705954646
8,flying fish cove,-10.4217,105.6791,25.82,88,75,2.57,CX,1705954646
9,nemuro,43.3236,145.575,0.05,86,100,8.24,JP,1705954587
10,utrik,11.2278,169.8474,26.13,78,100,9.4,MH,1705954646
11,waitangi,-43.9535,-176.5597,18.23,98,100,8.05,NZ,1705954646
12,yellowknife,62.456,-114.3525,-24.77,95,100,6.17,CA,1705954647
13,kerikeri,-35.2268,173.9474,22.17,92,65,3.25,NZ,1705954606
14,vilhena,-12.7406,-60.1458,24.12,94,100,6.17,BR,1705954647
15,buala,-8.145,159.5921,27.58,84,99,2.26,SB,1705954647
16,severo-yeniseyskiy,60.3725,93.0408,-19.68,93,100,2.24,RU,1705954648
17,ariquemes,-9.9133,-63.0408,29.76,68,89,0.99,BR,1705954648
18,mersa matruh,31.3525,27.2453,15.5,64,99,7.09,EG,1705954648
19,grytviken,-54.2811,-36.5092,2.9,78,82,5.08,GS,1705954648
20,vilyuysk,63.7553,121.6247,-32.78,100,100,1.34,RU,1705954649
21,adamstown,-25.066,-130.1015,24.5,82,100,6.44,PN,1705954649
22,rakovski,42.3,24.9667,-5.08,79,1,1.27,BG,1705954649
23,port-aux-francais,-49.35,70.2167,6.79,87,84,9.01,TF,1705954649
24,ilha de mocambique,-15.0342,40.7358,26.64,85,100,4.48,MZ,1705954649
25,tiksi,71.6872,128.8694,-25.46,91,100,11.15,RU,1705954650
26,codrington,-38.2667,141.9667,11.2,86,96,3.33,AU,1705954650
27,margaret river,-33.95,115.0667,16.67,79,14,3.99,AU,1705954650
28,kununurra,-15.7667,128.7333,25.99,100,40,2.06,AU,1705954650
29,puerto natales,-51.7236,-72.4875,20.25,56,75,10.8,CL,1705954651
30,yeppoon,-23.1333,150.7333,25.88,78,60,6.59,AU,1705954651
31,edinburgh of the seven seas,-37.0676,-12.3116,19.25,92,99,7.58,SH,1705954651
32,blackmans bay,-43.0167,147.3167,11.52,73,86,1.58,AU,1705954651
33,broken hill,-31.95,141.4333,22.54,27,0,4.64,AU,1705954652
34,whitehorse,60.7161,-135.0538,-20.39,74,100,2.57,CA,1705954652
35,georgetown,5.4112,100.3354,26.96,82,20,3.6,MY,1705954424
36,luderitz,-26.6481,15.1594,18.57,85,2,8.14,NA,1705954652
37,nicoya,10.1483,-85.452,34.04,40,9,7.5,CR,1705954652
38,brookings,44.3114,-96.7984,-1.06,79,0,3.6,US,1705954653
39,west island,-12.1568,96.8225,25.99,94,7,2.06,CC,1705954653
40,ta`u,-14.2336,-169.5144,29.09,71,92,6.05,AS,1705954653
41,port elizabeth,-33.918,25.5701,18.94,93,100,2.06,ZA,1705954653
42,nar'yan-mar,67.6713,53.087,-17.06,95,87,4.81,RU,1705954388
43,sittwe,20.15,92.9,16.68,67,12,4.87,MM,1705954654
44,college,64.8569,-147.8028,-37.03,55,0,0.0,US,1705954654
45,papatowai,-46.5619,169.4708,9.15,92,100,8.9,NZ,1705954654
46,khovd,48.0056,91.6419,-22.79,97,63,0.44,MN,1705954654
47,cooma,-36.2333,149.1333,12.69,91,100,2.31,AU,1705954655
48,concepcion del oro,24.6333,-101.4167,17.58,34,100,8.05,MX,1705954655
49,albany,42.6001,-73.9662,1.0,61,100,0.89,US,1705954655
50,al wajh,26.2455,36.4525,20.97,64,0,2.06,SA,1705954655
51,stanley,54.868,-1.6985,5.29,78,20,12.35,GB,1705954501
52,smithers,54.7804,-127.1743,-2.82,74,100,3.09,CA,1705954656
53,thompson,55.7435,-97.8558,-24.91,53,20,2.57,CA,1705954656
54,invercargill,-46.4,168.35,10.57,82,100,7.6,NZ,1705954657
55,avarua,-21.2078,-159.775,25.03,83,100,3.09,CK,1705954657
56,san antonio de pale,-1.4014,5.6325,26.99,82,0,3.07,GQ,1705954657
57,wotton-under-edge,51.6324,-2.3451,8.61,82,8,8.66,GB,1705954449
58,namibe,-15.1961,12.1522,22.82,74,9,4.59,AO,1705954658
59,isafjordur,66.0755,-23.124,-4.72,80,36,8.25,IS,1705954658
60,aasiaat,68.7098,-52.8699,-14.02,84,100,2.97,GL,1705954364
61,olonkinbyen,70.9221,-8.7187,-3.85,80,100,11.94,SJ,1705954658
62,punta arenas,-53.15,-70.9167,19.06,45,0,7.2,CL,1705954658
63,puerto armuelles,8.2833,-82.8667,35.99,61,19,0.45,PA,1705954659
64,vila franca do campo,37.7167,-25.4333,18.27,99,80,6.44,PT,1705954659
65,udachny,66.4167,112.4,-14.75,91,100,5.61,RU,1705954659
66,jamestown,42.097,-79.2353,0.77,45,100,2.68,US,1705954659
67,nova sintra,14.8667,-24.7167,20.63,80,67,4.74,CV,1705954659
68,port mathurin,-19.6833,63.4167,28.12,86,77,11.03,MU,1705954660
69,tolanaro,-25.0319,46.9987,24.86,85,87,1.91,MG,1705954660
70,kongolo,-5.3833,27.0,20.91,94,82,0.03,CD,1705954660
71,saint-georges,12.0564,-61.7485,27.82,74,40,7.2,GD,1705954660
72,altai,46.3722,96.2583,-23.78,72,0,0.88,MN,1705954661
73,latrobe,40.3212,-79.3795,3.2,43,75,5.14,US,1705954661
74,bethel,41.3712,-73.414,2.74,47,0,2.57,US,1705954401
75,weno,7.4515,151.8468,25.97,100,100,4.63,FM,1705954661
76,novoishimskiy,53.1981,66.7694,-11.54,93,100,1.2,KZ,1705954662
77,st. john's,47.5649,-52.7093,-1.13,76,20,9.77,CA,1705954505
78,huarmey,-10.0681,-78.1522,25.94,75,25,4.54,PE,1705954663
79,callao,-12.0667,-77.15,27.16,65,0,7.2,PE,1705954576
80,bilibino,68.0546,166.4372,-34.56,100,99,1.79,RU,1705954663
81,lihue,21.9789,-159.3672,26.58,71,75,7.2,US,1705954663
82,lamin,13.3522,-16.4339,26.06,37,30,4.76,GM,1705954664
83,robertsport,6.7533,-11.3686,27.84,86,17,5.72,LR,1705954664
84,titao,13.7667,-2.0667,26.94,8,100,3.93,BF,1705954664
85,ribeira grande,38.5167,-28.7,18.22,88,75,8.75,PT,1705954665
86,hanceville,34.0607,-86.7675,12.32,56,100,4.7,US,1705954665
87,fort st. john,56.2499,-120.8529,-16.06,85,75,4.63,CA,1705954665
88,sechura,-5.5569,-80.8222,30.25,57,32,6.47,PE,1705954665
89,galesong,-5.3166,119.3661,25.01,86,97,5.06,ID,1705954665
90,yung shue wan,22.2333,114.1167,7.04,87,100,1.79,HK,1705954666
91,salekhard,66.53,66.6019,-16.4,81,45,5.31,RU,1705954666
92,urangan,-25.3,152.9,26.22,93,37,2.68,AU,1705954666
93,la punta,-33.1837,-66.3127,29.54,34,50,4.45,AR,1705954666
94,iqaluit,63.7506,-68.5145,-30.73,67,40,5.14,CA,1705954667
95,ponta delgada,37.7333,-25.6667,18.44,82,75,5.66,PT,1705954667
96,bredasdorp,-34.5322,20.0403,18.75,64,95,8.08,ZA,1705954668
97,sejenane,37.0572,9.2381,12.53,67,65,4.53,TN,1705954668
98,kodiak,57.79,-152.4072,-3.27,63,100,9.77,US,1705954668
99,tura,25.5198,90.2201,11.48,67,56,1.33,IN,1705954505
100,kisangani,0.5167,25.2,25.78,36,84,0.91,CD,1705954669
101,saldanha,-33.0117,17.9442,18.46,74,0,6.72,ZA,1705954669
102,bubaque,11.2833,-15.8333,26.32,70,68,4.6,GW,1705954670
103,alice springs,-23.7,133.8833,28.75,70,97,3.6,AU,1705954499
104,puerto supe,-10.8167,-77.75,25.02,75,67,4.2,PE,1705954670
105,atafu village,-8.5421,-172.5159,29.43,71,97,3.08,TK,1705954670
106,niafunke,15.9322,-3.9906,24.9,6,56,5.58,ML,1705954670
107,al ghayzah,16.2079,52.176,22.39,53,76,1.0,YE,1705954671
108,touros,-5.1989,-35.4608,28.67,70,25,4.97,BR,1705954671
109,saint-pierre,-21.3393,55.4781,26.82,89,100,2.57,RE,1705954671
110,lubango,-14.9172,13.4925,16.26,75,82,1.41,AO,1705954671
111,guerrero negro,27.9769,-114.0611,17.59,75,100,0.27,MX,1705954671
112,el jadid,33.2549,-8.506,14.9,74,0,6.45,MA,1705954672
113,lompoc,34.6391,-120.4579,18.08,55,100,5.66,US,1705954672
114,lichuan,30.3,108.85,-4.36,79,88,1.73,CN,1705954672
115,knyaze-volkonskoye,48.4642,135.4567,-23.81,95,100,2.24,RU,1705954672
116,constantia,44.1833,28.65,-7.62,78,88,1.57,RO,1705954673
117,klaksvik,62.2266,-6.589,3.51,89,100,3.61,FO,1705954673
118,puerto ayora,-0.7393,-90.3518,30.98,93,23,3.13,EC,1705954673
119,kabo,7.6994,18.629,24.58,11,0,2.39,CF,1705954674
120,hawaiian paradise park,19.5933,-154.9731,26.05,83,75,0.45,US,1705954674
121,parang,7.3704,124.2697,23.18,92,100,1.39,PH,1705954674
122,rabaul,-4.1967,152.1721,27.44,80,100,3.79,PG,1705954674
123,sebastopol,44.6,33.5333,1.97,70,38,2.1,UA,1705954652
124,gaiman,-43.2897,-65.4929,34.39,24,1,8.74,AR,1705954675
125,obo,5.3998,26.4869,24.5,20,13,1.01,CF,1705954675
126,el obeid,13.1842,30.2167,20.09,19,90,4.17,SD,1705954675
127,ca mau,9.1769,105.15,24.4,83,43,4.15,VN,1705954556
128,wailua homesteads,22.0669,-159.378,26.24,72,75,7.2,US,1705954675
129,zhanaozen,43.3,52.8,-2.8,82,100,8.36,KZ,1705954676
130,jutai,-5.1833,-68.9,23.84,99,100,0.64,BR,1705954676
131,vadso,70.0744,29.7487,-1.91,80,75,8.75,NO,1705954676
132,rio grande,-32.035,-52.0986,25.06,59,86,7.45,BR,1705954676
133,port alfred,-33.5906,26.891,18.99,91,100,1.34,ZA,1705954677
134,mount gambier,-37.8333,140.7667,11.24,73,35,2.71,AU,1705954677
135,polyarnyy,69.1989,33.4478,-7.43,87,100,4.12,RU,1705954677
136,sooke,48.3746,-123.7276,9.27,95,100,7.72,CA,1705954678
137,benalla,-36.55,145.9833,15.22,73,64,2.67,AU,1705954453
138,hermanus,-34.4187,19.2345,18.22,72,23,9.35,ZA,1705954678
139,rosetta,31.4044,30.4164,16.65,70,93,10.0,EG,1705954678
140,sao joao da barra,-21.6403,-41.0511,26.05,78,2,7.13,BR,1705954679
141,tazovsky,67.4667,78.7,-8.55,93,100,8.46,RU,1705954679
142,berber,18.0216,33.983,24.74,36,53,5.21,SD,1705954679
143,fisterra,42.9049,-9.2629,15.42,98,100,5.12,ES,1705954680
144,inhambane,-23.865,35.3833,24.59,83,11,4.53,MZ,1705954680
145,afaahiti,-17.75,-149.2833,29.93,78,99,7.08,PF,1705954681
146,salalah,17.0151,54.0924,23.05,16,0,3.6,OM,1705954681
147,selfoss,63.9331,-20.9971,-11.51,84,66,1.78,IS,1705954681
148,taltal,-25.4,-70.4833,22.82,68,24,3.02,CL,1705954681
149,katsuura,35.1333,140.3,14.01,67,14,10.1,JP,1705954535
150,pitiquito,30.7,-112.0833,19.26,49,100,3.71,MX,1705954682
151,chonchi,-42.6128,-73.8092,25.56,36,0,1.5,CL,1705954682
152,yuzhno-kurilsk,44.0306,145.8556,-2.01,69,100,7.12,RU,1705954682
153,ulladulla,-35.35,150.4667,17.65,86,100,1.35,AU,1705954589
154,zhangjiakou,40.81,114.8794,-18.39,74,45,3.9,CN,1705954683
155,talnakh,69.4865,88.3972,-8.2,93,100,6.92,RU,1705954683
156,anahuac,27.2333,-100.15,21.68,47,43,3.28,MX,1705954683
157,sanya,18.2431,109.505,20.09,68,75,6.0,CN,1705954684
158,qaqortoq,60.7167,-46.0333,-9.57,86,99,3.95,GL,1705954684
159,nabire,-3.3667,135.4833,24.25,93,100,1.32,ID,1705954684
160,corbelia,-24.7989,-53.3067,23.64,78,100,0.14,BR,1705954528
161,antalaha,-14.9003,50.2788,25.36,90,100,1.21,MG,1705954685
162,dunedin,-45.8742,170.5036,11.56,93,100,5.81,NZ,1705954563
163,walvis bay,-22.9575,14.5053,20.61,82,100,2.42,NA,1705954685
164,leca da palmeira,41.191,-8.7003,14.55,99,100,4.63,PT,1705954686
165,rusk,31.796,-95.1502,10.35,100,100,3.09,US,1705954686
166,bel ombre,-4.6167,55.4167,26.91,83,20,2.57,SC,1705954686
167,nadym,65.5333,72.5167,-12.79,92,95,8.22,RU,1705954686
168,al jawf,29.5,38.75,17.09,27,7,3.62,SA,1705954687
169,kulhudhuffushi,6.6221,73.07,27.81,78,9,2.48,MV,1705954687
170,east ballina,-28.8667,153.5833,21.0,77,95,5.55,AU,1705954687
171,ancud,-41.8697,-73.8203,20.28,63,2,2.28,CL,1705954687
172,kodinsk,58.6881,99.1844,-19.76,98,90,1.74,RU,1705954687
173,iskateley,67.6803,53.1512,-17.04,95,88,4.78,RU,1705954688
174,san luis ixcan,15.7872,-91.095,29.08,57,49,2.12,GT,1705954688
175,simplicio mendes,-7.8539,-41.9103,31.26,51,99,1.86,BR,1705954688
176,mana,5.6592,-53.7767,28.01,62,70,4.72,GF,1705954688
177,gandorhun,7.5,-11.8333,26.64,80,9,3.04,SL,1705954689
178,hammerfest,70.6634,23.6821,-1.75,86,75,8.23,NO,1705954689
179,fale old settlement,-9.3852,-171.2468,29.42,70,84,2.39,TK,1705954689
180,markaz-e hukumat-e darweshan,31.1323,64.1934,10.09,27,0,1.27,AF,1705954689
181,petropavlovsk-kamchatsky,53.0452,158.6483,-9.01,77,75,3.0,RU,1705954689
182,stornoway,58.2093,-6.3865,6.98,70,40,12.35,GB,1705954690
183,hilo,19.7297,-155.09,26.45,65,75,1.79,US,1705954690
184,vyazemskiy,47.5378,134.7525,-20.88,98,100,0.8,RU,1705954690
185,ujae,8.9322,165.7642,27.33,78,19,9.36,MH,1705954691
186,kone,-21.0595,164.8658,26.67,85,100,1.4,NC,1705954691
187,pangody,65.85,74.4859,-12.97,92,100,8.81,RU,1705954691
188,dolinsk,47.35,142.8,-16.82,96,100,5.56,RU,1705954692
189,pindushi,62.9152,34.58,-4.14,95,100,6.92,RU,1705954692
190,las tablas,7.7667,-80.2833,30.82,65,19,6.83,PA,1705954692
191,nechi,8.0942,-74.7757,36.49,41,100,1.71,CO,1705954692
192,talcahuano,-36.7167,-73.1167,15.82,82,20,5.66,CL,1705954693
193,burang,30.25,81.1667,-10.77,51,29,1.55,CN,1705954693
194,dudinka,69.4058,86.1778,-10.18,95,100,4.02,RU,1705954693
195,karakol,42.4907,78.3936,-10.58,57,10,3.21,KG,1705954693
196,kidal,18.4411,1.4078,24.59,5,100,4.22,ML,1705954694
197,karema,-6.8205,30.4389,21.56,74,90,1.36,TZ,1705954694
198,colchani,-20.3,-66.9333,20.89,31,53,1.86,BO,1705954694
199,buchanan,5.8808,-10.0467,27.5,84,0,3.23,LR,1705954597
200,lauro de freitas,-12.8944,-38.3272,29.01,84,75,6.69,BR,1705954695
201,enriquillo,17.9,-71.2333,29.82,70,1,6.66,DO,1705954695
202,saint-joseph,-21.3667,55.6167,26.21,90,100,4.09,RE,1705954695
203,keelung,25.1283,121.7419,9.21,86,100,10.98,TW,1705954595
204,el dorado,38.7666,-120.5177,8.49,97,100,1.61,US,1705954927
205,happy valley-goose bay,53.3168,-60.3315,-8.83,57,100,9.26,CA,1705954696
206,shuangjiang,26.1547,109.7138,-4.2,91,93,2.79,CN,1705954540
207,howard springs,-12.497,131.047,28.26,96,100,3.16,AU,1705954696
208,purranque,-40.9167,-73.1667,28.63,28,0,3.39,CL,1705954696
209,prince george,53.9166,-122.753,-4.3,85,100,0.45,CA,1705954697
210,yenangyaung,20.4667,94.8833,17.8,57,1,2.33,MM,1705954697
211,tsiombe,-25.3,45.4833,23.82,88,56,3.47,MG,1705954698
212,badger,64.8,-147.5333,-37.07,68,20,0.0,US,1705954698
213,guane,22.2025,-84.0875,27.31,59,90,8.39,CU,1705954699
214,constitucion,-35.3333,-72.4167,20.56,67,14,2.65,CL,1705954699
215,boa vista,2.8197,-60.6733,33.99,33,20,7.72,BR,1705954699
216,hinton,53.4001,-117.5857,-5.65,89,97,0.96,CA,1705954700
217,san patricio,28.017,-97.5169,17.7,92,100,4.31,US,1705954700
218,kristiansund,63.1115,7.732,7.36,61,75,7.2,NO,1705954700
219,turpan,42.9333,89.1667,-2.69,42,100,0.33,CN,1705954700
220,sinabang,2.4803,96.3801,26.45,83,92,1.47,ID,1705954701
221,bonnyville,54.2668,-110.735,-15.38,87,100,5.28,CA,1705954701
222,hamilton,39.1834,-84.5333,6.97,37,75,6.17,US,1705954701
223,perugorria,-29.3413,-58.6106,27.33,49,0,6.27,AR,1705954701
224,maitum,6.0392,124.4986,25.02,82,87,1.32,PH,1705954702
225,ust-nera,64.5667,143.2,-42.45,99,97,1.68,RU,1705954702
226,queenstown,-31.8976,26.8753,16.44,83,100,3.6,ZA,1705954702
227,chegutu,-18.1302,30.1407,16.98,71,8,2.72,ZW,1705954702
228,sitka,57.0531,-135.33,7.94,71,100,6.17,US,1705954702
229,kapuskasing,49.4169,-82.4331,-6.0,79,100,5.14,CA,1705954703
230,palikir - national government center,6.9248,158.1611,28.41,79,100,3.6,FM,1705954703
231,puerto aysen,-45.4,-72.7,27.53,44,16,1.39,CL,1705954703
232,yorkton,51.2167,-102.4677,-13.88,89,100,4.36,CA,1705954703
233,arfoud,31.4348,-4.2375,12.31,28,0,2.13,MA,1705954704
234,red hill,33.9996,-79.2581,11.19,39,52,1.68,US,1705954704
235,port lincoln,-34.7333,135.8667,20.47,68,0,3.35,AU,1705954704
236,mogocha,53.7333,119.7667,-24.65,97,100,1.18,RU,1705954705
237,ghat,24.9647,10.1728,15.28,47,3,3.55,LY,1705954705
238,susuman,62.7833,148.1667,-45.01,98,86,1.79,RU,1705954705
239,broome,42.2506,-75.833,1.29,57,100,2.06,US,1705954705
240,hailey,43.5196,-114.3153,3.22,83,100,0.89,US,1705954705
241,launceston,-41.45,147.1667,12.11,87,100,2.57,AU,1705954706
242,palestine,31.9216,35.2033,12.19,82,39,2.72,PS,1705954706
243,remire-montjoly,4.9167,-52.2667,29.02,70,75,5.14,GF,1705954706
244,frontera,26.9333,-101.45,20.86,37,75,3.6,MX,1705954706
245,vila velha,-20.3297,-40.2925,28.87,88,75,5.66,BR,1705954707
246,guacimo,10.2104,-83.6807,30.91,53,18,3.78,CR,1705954707
247,vorgashor,67.5833,63.95,-25.44,98,16,3.67,RU,1705954707
248,siwa oasis,29.2041,25.5195,16.77,47,92,5.53,EG,1705954707
249,shelbyville,35.4834,-86.4603,9.69,61,75,4.12,US,1705954707
250,hithadhoo,-0.6,73.0833,28.51,78,97,5.28,MV,1705954708
251,bayanhongor,46.7167,100.1167,-30.32,77,3,1.72,MN,1705954708
252,uturoa,-16.7333,-151.4333,27.86,77,99,5.64,PF,1705954708
253,alaghsas,17.0187,8.0168,21.53,7,51,6.02,NE,1705954708
254,inari,68.906,27.0288,-2.89,95,100,4.96,FI,1705954709
255,kayangel,8.0823,134.7173,27.11,80,100,9.63,PW,1705954709
256,penzance,50.1186,-5.5371,10.38,74,100,10.82,GB,1705954709
257,sunland park,31.7965,-106.58,17.25,39,0,7.2,US,1705954709
258,kotlas,61.2611,46.6556,-7.75,89,94,4.92,RU,1705954710
259,cozumel,20.5083,-86.9458,28.04,81,75,8.23,MX,1705954710
260,revda,56.801,59.9303,-19.17,98,74,2.75,RU,1705954710
261,haiku-pauwela,20.9219,-156.3051,26.25,59,20,7.72,US,1705954710
262,tocache,-8.1842,-76.5125,31.08,59,97,1.55,PE,1705954710
263,ivdel',60.6911,60.4206,-18.78,96,33,1.79,RU,1705954711
264,bikenibeu village,1.3673,173.1241,28.98,79,40,3.09,KI,1705954711
265,katsuren-haebaru,26.3369,127.8719,14.43,81,100,7.2,JP,1705954712
266,arvayheer,46.2639,102.775,-19.97,75,0,2.93,MN,1705954712
267,parral,26.9333,-105.6667,17.9,25,100,10.4,MX,1705954484
268,haliyal,15.3333,74.7667,17.15,90,12,1.24,IN,1705954712
269,harstad,68.799,16.5293,-0.47,92,100,4.47,NO,1705954713
270,santa ana,33.7456,-117.8678,17.2,88,100,2.57,US,1705954713
271,enewetak,11.3474,162.3373,26.38,77,100,10.32,MH,1705954713
272,wenatchee,47.4235,-120.3103,5.37,97,100,0.0,US,1705954713
273,saint-philippe,-21.3585,55.7679,26.77,91,100,4.29,RE,1705954942
274,arno,60.1167,18.6333,4.88,75,100,10.98,SE,1705954715
275,jinzhou,41.1078,121.1417,-14.35,46,8,1.98,CN,1705954715
276,naracoorte,-36.9579,140.7383,15.57,53,0,3.69,AU,1705954715
277,rocky mountain house,52.3668,-114.9188,-11.94,72,100,5.14,CA,1705954715
278,yenagoa,4.9247,6.2642,28.54,70,0,3.32,NG,1705954716
279,kapa'a,22.0752,-159.319,26.99,71,75,7.2,US,1705954716
280,lincoln city,44.9582,-124.0179,12.61,98,100,2.68,US,1705954716
281,mahibadhoo,3.7833,72.9667,28.01,79,8,6.33,MV,1705954716
282,lospalos,-8.5186,127.0025,24.35,86,100,6.79,TL,1705954717
283,tsetserleg,47.475,101.4542,-24.6,81,2,2.97,MN,1705954717
284,ilulissat,69.2167,-51.1,-10.99,79,75,4.12,GL,1705954718
285,abbeville,50.1,1.8333,9.98,81,21,10.65,FR,1705954718
286,capayan,-28.761,-66.0502,31.0,33,34,5.92,AR,1705954718
287,carnarvon,-24.8667,113.6333,23.1,73,82,12.65,AU,1705954719
288,vilyuchinsk,52.9306,158.4028,-8.19,89,100,2.71,RU,1705954719
289,ad dilam,23.9915,47.1627,18.23,34,0,4.35,SA,1705954719
290,port augusta,-32.5,137.7667,25.75,28,0,2.57,AU,1705954719
291,kiuruvesi,63.65,26.6167,0.19,96,100,6.58,FI,1705954720
292,la passe,45.5549,-0.8967,11.66,90,98,4.56,FR,1705954720
293,chipata,-13.6333,32.65,18.59,98,100,0.62,ZM,1705954720
294,cockburn town,21.4612,-71.1419,25.06,79,37,11.75,TC,1705954721
295,bielsk podlaski,52.7651,23.1865,3.47,78,100,8.51,PL,1705954721
296,nefta,33.8731,7.8777,12.14,48,4,1.54,TN,1705954721
297,swan hill,-35.3378,143.5544,14.93,54,15,2.95,AU,1705954721
298,crane,31.3974,-102.3501,14.92,35,0,0.61,US,1705954722
299,axim,4.8699,-2.2405,27.42,85,4,4.27,GH,1705954722
300,kudahuvadhoo,2.6708,72.8944,27.89,79,6,5.94,MV,1705954723
301,matoury,4.8483,-52.3317,28.98,70,75,5.14,GF,1705954723
302,pokhara,28.2333,83.9833,9.38,41,7,2.27,NP,1705954502
303,pathein,16.7833,94.7333,20.89,79,8,3.37,MM,1705954723
304,kalachinsk,55.0529,74.5751,-15.28,85,100,3.35,RU,1705954724
305,kasongo-lunda,-6.4667,16.8167,23.22,76,37,0.59,CD,1705954724
306,sungai petani,5.647,100.4877,26.93,93,100,1.51,MY,1705954724
307,warrnambool,-38.3833,142.4833,12.22,84,100,3.45,AU,1705954442
308,encarnacion de diaz,21.5167,-102.2333,21.32,27,100,8.42,MX,1705954724
309,oriximina,-1.7656,-55.8661,28.26,78,81,2.03,BR,1705954725
310,ventspils,57.3894,21.5606,4.96,93,100,8.75,LV,1705954725
311,bontang,0.1333,117.5,25.94,88,100,2.94,ID,1705954725
312,kambileyevskoye,43.0786,44.7522,-3.97,92,100,2.0,RU,1705954725
313,severnoye,56.3491,78.3619,-15.01,84,100,4.02,RU,1705954726
314,arraial do cabo,-22.9661,-42.0278,26.98,78,40,5.14,BR,1705954726
315,luanco,43.6152,-5.7934,14.05,97,100,1.92,ES,1705954726
316,rice lake,45.5061,-91.7382,-0.82,66,100,0.0,US,1705954726
317,novodvinsk,64.4165,40.8122,-5.12,90,100,4.77,RU,1705954727
318,natal,-5.795,-35.2094,30.36,74,75,6.69,BR,1705954727
319,horta,38.5333,-28.6333,17.8,90,75,8.75,PT,1705954727
320,camarinas,43.1311,-9.1817,15.52,97,100,4.14,ES,1705954728
321,acapulco de juarez,16.8634,-99.8901,31.9,45,20,5.66,MX,1705954728
322,verkhov'ye,52.8119,37.2425,-12.6,92,14,5.74,RU,1705954728
323,surskoye,54.4821,46.7214,-21.97,99,13,2.57,RU,1705954728
324,saipan,15.1355,145.701,25.39,78,0,7.72,MP,1705954729
325,port saint john's,-31.6229,29.5448,22.72,85,92,5.97,ZA,1705954729
326,champerico,14.3,-91.9167,36.3,58,86,4.92,GT,1705954729
327,balkh,36.75,67.0,9.59,36,71,1.5,AF,1705954729
328,lucapa,-8.4192,20.7447,19.97,90,98,0.41,AO,1705954496
329,arkalyk,50.2486,66.9114,-11.35,73,100,3.23,KZ,1705954730
330,gorgan,36.8387,54.4348,7.98,93,100,3.09,IR,1705954730
331,kyabe,9.4515,18.9449,26.65,10,0,1.82,TD,1705954730
332,chelm,51.1431,23.4716,2.72,68,100,7.97,PL,1705954730
333,ceylanpinar,36.8472,40.05,10.25,84,61,3.67,TR,1705954731
334,haro,42.5763,-2.8476,12.37,84,99,2.45,ES,1705954731
335,amungan,15.3652,119.9582,25.01,75,36,1.91,PH,1705954731
336,miri,4.4148,114.0089,24.08,100,20,0.51,MY,1705954731
337,new norfolk,-42.7826,147.0587,12.18,69,97,0.2,AU,1705954732
338,deniliquin,-35.5333,144.9667,14.82,62,57,1.97,AU,1705954732
339,yanam,16.7333,82.2167,21.08,89,75,1.62,IN,1705954732
340,cabo san lucas,22.8909,-109.9124,26.45,57,75,5.14,MX,1705954732
341,saoner,21.3833,78.9,20.92,43,86,2.02,IN,1705954732
342,suva,-18.1416,178.4415,25.71,94,75,2.06,FJ,1705954733
343,kalmunai,7.4167,81.8167,26.31,70,100,2.73,LK,1705954733
344,basmakci,37.8972,30.0117,1.05,79,32,2.21,TR,1705954733
345,mashhad,36.297,59.6062,6.08,49,0,3.09,IR,1705954733
346,ocean shores,46.9737,-124.1563,10.72,98,100,7.2,US,1705954734
347,aldama,22.9167,-98.0667,25.21,61,63,5.02,MX,1705954734
348,aljezur,37.3191,-8.8033,12.51,83,10,2.77,PT,1705954734
349,songadh,21.1667,73.5667,18.06,27,51,1.04,IN,1705954734
350,praia da vitoria,38.7333,-27.0667,17.14,88,40,11.6,PT,1705954735
351,fortaleza,-3.7227,-38.5247,30.6,87,75,5.66,BR,1705954735
352,ouesso,1.6136,16.0517,25.44,26,3,1.08,CG,1705954735
353,hami,42.8,93.45,-11.01,61,0,1.39,CN,1705954735
354,kingston,17.997,-76.7936,30.53,77,40,5.66,JM,1705954736
355,kuala belait,4.5833,114.1833,24.09,89,47,3.26,BN,1705954736
356,oeiras do para,-2.0031,-49.8544,33.42,50,23,2.91,BR,1705954736
357,ibiza,38.9088,1.433,14.01,83,75,4.63,ES,1705954736
358,kota belud,6.351,116.4305,24.76,85,45,1.78,MY,1705954736
359,jewar,28.1333,77.55,6.82,51,0,1.13,IN,1705954737
360,khilok,51.3674,110.4676,-22.62,96,64,1.63,RU,1705954737
361,port moresby,-9.4431,147.1797,23.68,94,100,5.14,PG,1705954737
362,tabou,4.423,-7.3528,26.97,84,37,3.33,CI,1705954737
363,kavarna,43.4333,28.3333,-3.57,89,28,2.86,BG,1705954738
364,puerto ayacucho,5.6639,-67.6236,36.96,29,50,3.42,VE,1705954738
365,quatis,-22.4072,-44.2581,23.23,90,68,2.76,BR,1705954738
366,pagar alam,-4.0167,103.2667,19.62,85,99,2.01,ID,1705954738
367,gadzhiyevo,69.2551,33.3362,-7.9,88,100,3.76,RU,1705954739
368,east london,-33.0153,27.9116,21.02,81,94,5.7,ZA,1705954739
369,las khorey,11.1595,48.1967,24.73,57,91,5.3,SO,1705954739
370,anthem,33.8673,-112.1468,15.92,72,98,3.6,US,1705954739
371,st. paul,44.9444,-93.0933,1.38,66,100,1.54,US,1705954740
372,handan,36.6006,114.4678,-5.86,34,6,1.42,CN,1705954740
373,portland,45.5234,-122.6762,13.12,92,100,1.79,US,1705954740
374,asipovichy,53.2933,28.6422,-2.22,87,100,7.36,BY,1705954740
375,calama,-22.4667,-68.9333,26.27,25,0,11.83,CL,1705954740
376,ishigaki,24.3448,124.1572,13.07,94,75,7.72,JP,1705954741
377,saint-louis,16.3333,-15.0,29.06,6,100,4.95,SN,1705954741
378,les avirons,-21.2418,55.3394,25.05,89,100,2.57,RE,1705954741
379,priozersk,61.0393,30.1291,-1.06,86,100,8.12,RU,1705954742
380,riverhead,40.917,-72.662,3.02,60,0,5.66,US,1705954742
381,strazhitsa,43.2333,25.9667,-4.11,82,4,1.87,BG,1705954742
382,namdrik,5.5994,168.1028,27.94,80,27,8.53,MH,1705954742
383,katima mulilo,-17.5,24.2667,20.75,87,100,2.16,NA,1705954742
384,lerwick,60.1545,-1.1494,7.0,84,54,10.71,GB,1705954743
385,lazaro cardenas,17.9583,-102.2,29.82,52,0,4.14,MX,1705954743
386,jalai nur,49.45,117.7,-26.37,97,25,1.12,CN,1705954743
387,pechora,65.1472,57.2244,-16.75,95,100,6.26,RU,1705954743
388,general acha,-37.377,-64.6043,34.98,16,0,8.33,AR,1705954744
389,paro,27.4305,89.4133,1.93,92,46,0.88,BT,1705954744
390,luba,3.4568,8.5547,26.94,77,4,4.57,GQ,1705954744
391,askino,56.0901,56.5783,-29.52,100,100,2.08,RU,1705954744
392,sena madureira,-9.0656,-68.6569,29.33,68,100,1.19,BR,1705954744
393,tselinnoye,53.0833,85.6667,-23.81,96,16,1.09,RU,1705954745
394,namtsy,62.7161,129.6658,-40.76,100,52,1.65,RU,1705954745
395,buka,40.8108,69.1986,6.24,37,86,0.26,UZ,1705954745
396,nazarovo,56.0064,90.3914,-22.43,94,11,1.79,RU,1705954745
397,klyuchi,52.2667,79.1667,-17.25,86,10,3.48,RU,1705954746
398,satuek,15.297,103.2919,20.06,68,57,6.83,TH,1705954591
399,guelmim,28.987,-10.0574,18.76,25,3,3.93,MA,1705954746
400,anna regina,7.2644,-58.5077,27.78,68,0,3.19,GY,1705954746
401,cacule,-14.5033,-42.2222,30.05,52,86,3.33,BR,1705954746
402,bhindar,24.5,74.1833,12.36,35,0,2.11,IN,1705954747
403,mount isa,-20.7333,139.5,24.87,94,46,0.0,AU,1705954747
404,valparaiso,-33.0393,-71.6273,21.13,68,20,4.12,CL,1705954747
405,salinopolis,-0.6136,-47.3561,28.07,80,30,4.86,BR,1705954747
406,pisco,-13.7,-76.2167,26.03,73,0,5.66,PE,1705954748
407,atherton,53.5237,-2.4935,7.72,73,15,6.71,GB,1705954748
408,uttaradit,17.6667,100.5,14.46,46,39,1.65,TH,1705954748
409,kamloops,50.6665,-120.3192,5.32,90,100,4.12,CA,1705954748
410,bardai,11.65,7.2333,21.68,9,10,4.32,NG,1705954749
411,nantucket,41.2835,-70.0995,3.08,65,0,7.2,US,1705954749
412,assab,13.0092,42.7394,25.48,74,57,10.49,ER,1705954749
413,emmett,43.8735,-116.4993,7.94,87,100,2.23,US,1705954749
414,okakarara,-20.5833,17.4333,25.07,41,98,3.1,NA,1705954749
415,biratnagar,26.4831,87.2834,11.06,57,3,2.25,NP,1705954750
416,mingora,34.7758,72.3625,7.17,27,100,1.75,PK,1705954750
417,quellon,-43.1167,-73.6167,20.06,61,20,4.99,CL,1705954750
418,winnemucca,40.973,-117.7357,7.03,81,100,3.09,US,1705954750
419,mejit,10.2753,170.8646,26.46,82,23,8.62,MH,1705954751
420,boguchany,58.3814,97.4531,-22.3,99,81,1.34,RU,1705954751
421,mar del plata,-38.0023,-57.5575,28.62,71,0,9.39,AR,1705954751
422,heishan,41.6892,122.1128,-17.61,62,8,2.28,CN,1705954751
423,sao gabriel da cachoeira,-0.1303,-67.0892,32.89,58,20,2.57,BR,1705954751
424,grand falls-windsor,48.9332,-55.6649,-3.61,67,9,4.59,CA,1705954752
425,muisne,0.6,-80.0333,27.6,84,92,4.88,EC,1705954752
426,huaraz,-9.5333,-77.5333,18.68,64,93,1.53,PE,1705954753
427,hakha,22.65,93.6167,4.56,72,18,0.95,MM,1705954753
428,tambov,52.7317,41.4339,-18.41,100,5,3.13,RU,1705954753
429,ryzdvyanyy,45.2656,41.8389,-9.61,74,54,5.24,RU,1705954753
430,chardara,41.2547,67.9692,7.31,55,85,2.83,KZ,1705954754
431,victoria,22.2855,114.1577,7.4,89,100,6.71,HK,1705954685
432,altamont,42.2068,-121.7372,8.91,76,75,0.45,US,1705954754
433,arinos,-15.9169,-46.1056,30.48,56,74,1.79,BR,1705954755
434,taroa,8.7058,171.2275,27.1,77,82,7.88,MH,1705954755
435,dawesville,30.9224,-84.0091,18.71,56,0,4.12,US,1705954755
436,vangaindrano,-23.35,47.6,25.61,81,100,1.31,MG,1705954755
437,loncoche,-39.3667,-72.6333,36.19,20,0,2.66,CL,1705954756
438,kerema,-7.9631,145.7785,24.95,92,100,5.42,PG,1705954756
439,paita,-5.0892,-81.1144,27.02,71,51,7.31,PE,1705954756
440,kenai,60.5544,-151.2583,-18.28,81,0,2.57,US,1705954756
441,daru,-9.0763,143.2092,24.6,92,100,5.62,PG,1705954756
442,shajiang,26.7825,119.9669,1.34,92,100,1.81,CN,1705954757
443,veracruz,19.3333,-96.6667,19.86,91,99,0.74,MX,1705954757
444,port nelson,23.6333,-74.8333,22.67,71,100,11.18,BS,1705954757
445,coquimbo,-29.9533,-71.3436,18.85,77,20,6.17,CL,1705954757
446,ellensburg,46.9965,-120.5479,3.59,93,100,0.0,US,1705954758
447,fuglafjordur,62.244,-6.814,3.26,92,100,2.96,FO,1705954758
448,alagoinhas,-12.1356,-38.4192,31.36,55,97,3.82,BR,1705954758
449,laguna,38.421,-121.4238,15.16,84,100,4.63,US,1705954758
450,paidha,2.4167,30.9855,20.13,39,28,1.49,UG,1705954759
451,al qadarif,14.0349,35.3834,27.08,29,3,5.01,SD,1705954759
452,olenino,56.2092,33.4889,-4.12,79,100,8.89,RU,1705954759
453,tofol,5.3248,163.0078,27.87,81,89,9.23,FM,1705954759
454,midland,31.9974,-102.0779,12.37,66,0,1.54,US,1705954760
455,akureyri,65.6835,-18.0878,-12.04,72,40,3.6,IS,1705954760
456,aginskoye,51.1,114.53,-16.2,76,9,6.22,RU,1705954760
457,lensk,60.7253,114.9278,-11.12,88,100,6.37,RU,1705954760
458,saskatoon,52.1168,-106.6345,-14.01,77,100,6.71,CA,1705954760
459,beipiao,41.7919,120.7792,-15.53,51,9,3.03,CN,1705954761
460,dhidhdhoo,6.8833,73.1,27.86,76,4,2.33,MV,1705954761
461,kyzylorda,44.8528,65.5092,-11.99,79,0,2.0,KZ,1705954761
462,tezu,27.9167,96.1667,13.09,47,1,1.87,IN,1705954622
463,port macquarie,-31.4333,152.9167,19.94,77,100,3.39,AU,1705954761
464,anar darah,32.7587,61.654,10.45,27,0,2.15,AF,1705954762
465,mezhdurechenskiy,59.6,65.9333,-17.65,97,6,2.65,RU,1705954762
466,vershino-darasunskiy,52.35,115.5167,-21.86,89,98,2.2,RU,1705954763
467,tindouf,27.6711,-8.1474,18.25,27,94,2.57,DZ,1705954763
468,ellsworth,44.5434,-68.4195,2.29,68,0,3.09,US,1705954764
469,puerto santa,-8.9906,-78.6456,25.46,75,68,4.35,PE,1705954764
470,beacon square,28.2086,-82.7554,20.66,68,100,1.79,US,1705954764
471,jayapura,-2.5333,140.7,24.66,94,100,2.52,ID,1705954765
472,oranjemund,-28.55,16.4333,17.45,95,39,2.84,NA,1705954765
473,dwarka,22.2394,68.9678,21.37,73,4,4.48,IN,1705954766
474,chapaev,50.2,51.1667,-20.25,92,5,4.05,KZ,1705954766
475,shenjiamen,29.9576,122.298,0.22,65,100,10.79,CN,1705954766
476,thunder bay,48.4001,-89.3168,-4.01,63,100,3.6,CA,1705954767
477,as sulayyil,20.4607,45.5779,18.14,35,1,4.02,SA,1705954767
478,dryden,49.7833,-92.7503,-9.49,76,100,3.31,CA,1705954767
479,parfino,57.9731,31.6481,-2.11,93,100,8.47,RU,1705954767
480,korsakov,46.6328,142.7813,-14.09,89,100,11.53,RU,1705954767
481,chibougamau,49.9168,-74.3659,-5.21,93,100,5.66,CA,1705954768
482,richards bay,-28.783,32.0377,22.64,90,10,3.87,ZA,1705954704
483,nagqu,31.5,92.0,-18.99,81,0,1.54,CN,1705954768
484,wellington,-41.2866,174.7756,21.66,83,75,11.32,NZ,1705954662
485,faya-largeau,17.9257,19.1043,22.21,24,20,9.42,TD,1705954769
486,juliaca,-15.5,-70.1333,18.99,34,40,6.69,PE,1705954769
487,savanna-la-mar,18.219,-78.1332,28.29,62,59,4.65,JM,1705954770
488,hadibu,12.65,54.0333,23.58,68,48,5.8,YE,1705954770
489,onega,63.9061,38.1404,-5.16,87,100,6.49,RU,1705954770
490,la'ie,21.6477,-157.9253,27.98,70,5,1.79,US,1705954770
491,kajiado,-1.8524,36.7768,16.7,79,93,4.48,KE,1705954771
492,at taj,24.2049,23.2857,13.22,50,100,5.25,LY,1705954523
493,marquette,46.5333,-87.6335,-3.51,70,100,2.24,US,1705954771
494,dobroslav,46.8194,30.9432,0.04,76,93,4.28,UA,1705954771
495,tumut,-35.3,148.2167,16.05,80,94,1.42,AU,1705954771
496,greymouth,-42.4667,171.2,15.07,93,98,8.66,NZ,1705954772
497,geraldton,-28.7667,114.6,21.23,73,75,7.72,AU,1705954772
498,princeville,45.7668,-61.2985,-1.94,68,7,0.89,CA,1705954772
499,kampene,-3.6,26.6667,20.04,89,89,0.79,CD,1705954772
500,puerto baquerizo moreno,-0.9,-89.6,28.55,84,40,4.12,EC,1705954611
501,kangdong-up,39.1425,126.0961,-16.5,71,25,3.32,KP,1705954773
502,san andres,12.5847,-81.7006,31.01,62,20,7.72,CO,1705954773
503,mananara,-16.1667,49.7667,24.65,88,99,1.87,MG,1705954773
504,domna,51.8971,113.1573,-17.91,65,21,2.0,RU,1705954773
505,baracoa,20.3467,-74.4958,24.61,84,100,7.6,CU,1705954774
506,leh,34.1667,77.5833,-7.94,28,99,1.15,IN,1705954718
507,pionerskiy,54.9508,20.2275,3.91,94,100,10.92,RU,1705954774
508,denison,33.7557,-96.5367,3.42,94,100,2.68,US,1705954520
509,pariaman,-0.619,100.12,25.03,88,87,1.5,ID,1705954775
510,minab,27.1467,57.0801,20.04,67,0,0.23,IR,1705954775
511,zuera,41.8677,-0.7898,8.99,75,27,3.93,ES,1705954775
512,tuy hoa,13.0833,109.3,20.94,91,24,3.1,VN,1705954501
513,aldan,58.6031,125.3894,-14.87,95,100,4.71,RU,1705954775
514,tokar,18.4254,37.729,26.33,76,100,3.5,SD,1705954755
515,suncho corral,-27.9336,-63.4294,35.76,17,0,4.69,AR,1705954776
516,muravlenko,63.7898,74.523,-13.69,91,79,8.62,RU,1705954776
517,santa rosa,14.3122,121.1114,26.17,97,48,2.18,PH,1705954729
518,aykhal,66.0,111.5,-14.79,93,99,7.82,RU,1705954777
519,isiro,2.7739,27.616,22.69,30,95,1.15,CD,1705954777
520,kourou,5.1552,-52.6478,29.03,72,49,4.39,GF,1705954919
521,porto novo,6.4965,2.6036,28.9,78,0,3.91,BJ,1705954777
522,canutama,-6.5339,-64.3831,24.52,98,100,0.8,BR,1705954777
523,kansipati,6.0011,121.2344,24.91,89,75,0.94,PH,1705954778
524,christchurch,-43.5333,172.6333,21.06,78,20,7.72,NZ,1705954641
525,novoutkinsk,56.993,59.5571,-24.6,100,100,1.81,RU,1705954778
526,egilsstadir,65.2653,-14.3948,-6.05,68,75,4.63,IS,1705954778
527,nha trang,12.25,109.1833,24.0,88,14,2.93,VN,1705954502
528,kuanda,56.3161,116.0806,-22.55,97,99,0.34,RU,1705954779
529,coldwater,41.9403,-85.0005,-0.84,89,100,7.2,US,1705954779
530,sarvar,47.2539,16.9352,1.92,75,100,1.79,HU,1705954779
531,baiti,13.745,-14.7482,30.89,6,29,4.44,SN,1705954779
532,karratha,-20.7377,116.8463,26.98,77,89,5.04,AU,1705954769
533,minas de marcona,-15.2119,-75.1103,23.36,69,57,4.66,PE,1705954780
534,ewo,-0.8725,14.8206,26.78,61,76,1.55,CG,1705954781
535,celestun,20.8667,-90.4,25.92,70,100,3.61,MX,1705954781
536,iwaki,37.05,140.8833,6.68,83,52,0.45,JP,1705954627
537,novyy urengoy,66.0833,76.6333,-11.49,91,100,9.35,RU,1705954781
538,ust'-ilimsk,58.0006,102.6619,-19.2,97,84,2.24,RU,1705954782
539,mogadishu,2.0371,45.3438,26.41,80,9,10.67,SO,1705954782
540,manga,11.6636,-1.0731,27.47,8,99,3.15,BF,1705954782
541,selinsgrove,40.799,-76.8622,1.41,50,75,2.57,US,1705954782
542,dzhalagash,45.0833,64.6667,-4.52,63,83,3.23,KZ,1705954782
543,nushki,29.5542,66.0215,9.34,31,0,1.07,PK,1705954783
544,manaure,11.7751,-72.4445,31.58,42,0,12.17,CO,1705954783
545,butembo,0.15,29.2833,16.86,51,45,1.33,CD,1705954783
546,taichung,24.1469,120.6839,9.16,89,75,13.89,TW,1705954507
547,tadine,-21.55,167.8833,26.39,82,100,2.94,NC,1705954783
548,pacific grove,36.6177,-121.9166,16.68,89,100,3.13,US,1705954784
549,bamboo flat,11.7,92.7167,21.05,94,3,1.03,IN,1705954784
550,lengshuijiang,27.6881,111.4294,-6.64,91,13,1.19,CN,1705954784
551,diego de almagro,-26.3667,-70.05,30.55,21,3,6.34,CL,1705954784
552,ciudad gustavo diaz ordaz,26.2333,-98.5833,23.34,74,79,8.01,MX,1705954785
553,copala,16.65,-98.9833,30.8,49,5,4.49,MX,1705954785
554,piti village,13.4626,144.6933,25.03,93,100,2.06,GU,1705954785
555,tekeli,44.83,78.8239,-8.66,62,0,4.83,KZ,1705954785
556,china,25.7,-99.2333,26.69,47,60,5.24,MX,1705954540
557,heyuan,23.7333,114.6833,2.17,90,100,3.29,CN,1705954786
558,san borja,-14.8167,-66.85,30.53,73,100,2.28,BO,1705954786
559,pemba,-12.974,40.5178,25.1,88,100,3.47,MZ,1705954786
560,midvagur,62.0511,-7.1939,3.46,93,75,2.06,FO,1705954786
561,westerland,54.9079,8.3033,6.12,81,75,9.77,DE,1705954787
562,fort bragg,35.139,-79.006,10.92,24,0,2.06,US,1705954787
563,afif,23.9065,42.9172,19.51,32,0,4.66,SA,1705954787
564,amarante do maranhao,-5.5667,-46.7422,28.59,69,80,2.08,BR,1705954787
565,yamada,39.4667,141.95,6.02,76,95,4.59,JP,1705954787
566,tamanrasset,22.785,5.5228,15.95,8,0,2.57,DZ,1705954788
567,mandalgovi,45.7625,106.2708,-20.88,91,10,4.89,MN,1705954788
568,eirunepe,-6.6603,-69.8736,24.77,96,100,0.75,BR,1705954788
569,betio village,1.358,172.9211,29.02,74,93,4.81,KI,1705954642
570,qazvin,36.2797,50.0049,4.79,75,100,2.06,IR,1705954789
571,conde,-7.2597,-34.9075,29.7,70,40,4.12,BR,1705954789
572,port-vila,-17.7338,168.3219,24.78,100,100,1.03,VU,1705954789
573,tanah merah,5.8,102.15,23.9,100,99,0.13,MY,1705954789
574,golmarmara,38.7139,27.9142,3.12,70,0,2.28,TR,1705954790
575,huangmei,30.1924,116.025,-2.67,45,13,2.1,CN,1705954790
576,viedma,-40.8135,-62.9967,38.12,10,0,7.05,AR,1705954790
577,alofi,-19.0595,-169.9187,26.94,89,92,5.66,NU,1705954790
578,balykchy,42.4557,76.1861,-6.88,59,20,0.89,KG,1705954790
579,nizhnesortymskiy,62.4397,71.7603,-15.06,95,91,5.57,RU,1705954791
580,uusikaupunki,60.8004,21.4084,3.3,85,100,10.42,FI,1705954791
581,bulungu,-4.55,18.6,23.37,86,83,1.23,CD,1705954791
582,tirumullaivasal,11.2333,79.8333,24.43,74,5,4.15,IN,1705954791
583,loango,-4.6719,11.8312,27.81,83,40,4.63,CG,1705954792
584,kalianget,-7.05,113.9333,26.45,87,100,4.17,ID,1705954792
585,harper,4.375,-7.7169,26.99,85,20,3.69,LR,1705954792
586,margate,51.3813,1.3862,8.39,69,11,5.36,GB,1705954737
587,jaltepec,19.7333,-98.6333,19.06,31,15,4.19,MX,1705954792
588,santa rosalia,27.3167,-112.2833,19.5,53,100,1.75,MX,1705954793
